city,province,gdp19,gdpStage19,peo,lon,lat,moneyDigit,giveOutMethod,methodDescribe,giveTimeDescribe,moneyDescribe,numDescribe,ruleDescribe,url
北京,直辖市,30320,1.0,2171,116.4133836971231,39.910924547299565,100000000.0,领取,APP领取,5月31日0时起,超亿元,0,同一账号，同一手机号在同一批次发券周期中仅限领取一张消费券。,http://bj.bendibao.com/
上海,直辖市,32679,1.0,2418,121.48053886017651,31.235929042252014,300000000.0,抢券,苏宁平台、线下门店,2020年4月15日-6月30日,3亿,0,广大市民从4月15日起，就可以线上线下抢券，每人限领1次，抢券截止日期为6月底。,http://sh.bendibao.com/
天津,直辖市,18809,2.0,1557,117.2080927529767,39.09110259843554,10000000.0,领取,云闪付APP,10月1日起,1000万元，每人享受一次满100立减40,0,"无需领取，下载云闪付APP, 完成实名注册并绑定银行卡，在指定的11家超市结账时打开云闪付APP，在首页点击付款码或扫一扫进行支付即可。活动期间，每个实名注册账号享受一次优惠。",http://tj.bendibao.com/
重庆,直辖市,20363,2.0,3372,106.55843415537664,29.568996245338923,400000000.0,领取,支付宝,9月30日前，每周五-周日每天上午10:00,共4亿元，满20元立减5元；满35元立减6元；满50元立减7元,0,商品消费券：满20元立减5元；满35元立减6元；满50元立减7元。,http://cq.bendibao.com/
深圳,广东,24691,2.0,1253,114.06455183658751,22.548456637984177,10000000.0,领取,微信小程序,2021年4月22日-5月5日,1000万元,0,4月22日，罗湖区政府联合腾讯乘车码举行新闻发布会，正式宣布开启“绿色出行‘码’上有礼”活动。即日起，深圳市民乘公交、地铁出行，使用微信“乘车码”小程序刷码乘车，即可获取绿色出行分，并兑换价值千万的消费券，到活动指定的直营门店使用。,http://sz.bendibao.com/
广州,广东,23000,2.0,1450,113.27143134445974,23.135336306695006,100000000.0,领取,”京喜“小程序、”京东“APP,第一批已于11月3日上午10时发放，第二批于11月9日上午10时发放,满200元享9折优惠,20亿,广州消费者通过京东APP、京喜APP、京喜小程序可领取广州消费券。仅面向广州消费者领取使用，人在广州可以领，购物或收货地址在广州可以用。同一账号，同一手机号在同批次发券周期中仅限领取一次消费券。消费者每笔交易只能使用一张消费券，仅限本人使用。如申领消费券后当期截止时间内未使用，消费券自动失效。,http://gz.bendibao.com/
东莞,广东,8300,4.0,832,113.75842045787648,23.02730841164339,100000000.0,领取,小程序领取/APP领取,4月23日起,未定,未定,在活动时间内，通过活动制定领取路径即可领取消费券。微信小程序，支付宝APP，云闪付APP均有发券。,http://dg.bendibao.com/
佛山,广东,10550,3.0,846,113.12851219549718,23.02775875078891,500000000.0,领取,小程序领取,已结束,总金额1.5亿元,发券100万张,通过“顺德惠企”小程序领取，在小程序首页点击【企业助力券】；进入后，选择商家助力券，点击领取；通过点击顶部的【商品分类】，可以选择商品类型，筛选助力券。,http://fs.bendibao.com/
中山,广东,3759,4.0,356,113.39942236263188,22.5223146707905,1000000.0,,中山书展云平台领取,8月20日-23日每天早上9:00,总值超100万元,超30000张,抢券期间，每个微信号每天都有三次抢券机会，随机获得一张购书券（购书券面额为30元、50元）。当天3次抢券均不成功时，可进行答题抢券，答对即可获得20元购书券。,http://zs.bendibao.com/
珠海,广东,2966,4.0,177,113.58255478654918,22.27656465424921,156000000.0,领取,最珠海APP,2月11日9:00至2月17日23:59,1.56亿元,不限量,春节期间在珠的非珠海户籍务工人员(以下简称务工人员)，务工人员数据以2020年12月或2021年1月参加了本市城镇职工基本养老保险的人员为准(含港澳台人员，不含机关事业单位人员和外籍人员)，每人发放春节“暖心券”200元，由1张100元和2张50元电子券组合而成。,http://zh.bendibao.com/
惠州,广东,4150,4.0,481,114.4235580165817,23.116358854725593,100000000.0,领取,网上领取,2月6日起,30元优惠券,0,不限户籍、人人可领。每人最多两张。,http://huizhou.bendibao.com/
清远,广东,0,5.0,,,,20000000.0,摇号,小程序和支付宝APP,9月29日，10月1日，10月6日，10月12日，10月18日，10月25日上午10点,2000万,预计投放62万张,1.微信：2020年9月29日、10月1日、10月6日、10月12日、10月18日、10月25日上午10点由系统从当期已预约报名市民中随机抽取。中奖市民将受到“微信支付”消息提醒，消费券自动存入微信“卡包”。每人每次仅限获得一张电子消费券。,http://qy.bendibao.com/
湛江,广东,3012,4.0,830,110.36555441392824,21.276723439012073,100000000.0,摇号,微信领取,即日起-2021年2月28日,快车券5-98折随机优惠；代驾新客立减12元，老客立减3元,0,1、领取有效时间：即日起-2021年2月28日，领取后7天内有效,http://zhanjiang.bendibao.com/
南宁,广西,4480,4.0,756,108.37345082581861,22.822606601187154,100000000.0,领取,支付宝APP领取,2月1日-2月11日,每份消费券包内含7张消费券，其中满40元减10元2张、满25元减5元2张、满5元减1元3张，合计33元。,0,消费者可在支付宝APP主页活动会场领取“33消费券包”，数量有限，先到先得，领完即止。消费券领取后3日有效。,http://nn.bendibao.com/
梧州,广西,0,5.0,,,,100000000.0,领取,支付宝APP领取,3月26日至5月26日,每张暖心卡包含50张消费电子券，涵盖餐饮、购物、酒店景区及公交出行等消费领域，总价值268元！,0,通过支付宝APP首页搜索“33”领取。领取消费券后，到任意一个在广西区内经营并参与活动的商家消费，通过支付宝支付结算，便可使用消费券抵扣金额。,http://wuzhou.bendibao.com/
南京,江苏,12820,3.0,850,118.80242172124585,32.06465288561847,100000000.0,抢券,微信领取,2020年4月9日起,未公布,0,"集结千万优惠，联合上百家商户打造“乐享暖春复工礼”，吃喝玩乐全包了！福利加倍快乐升级！生活里没有免费二字,但暖春复工礼有!度假区湖景房免单住、龙虾烧烤免费享、海鲜自助吃到饱…这里不仅有惊喜免单礼,还有更多优惠等你抢!",http://nj.bendibao.com/
苏州,江苏,18597,2.0,1068,120.59241222959322,31.303564074441766,60000000.0,领取,支付宝,2020年8月24日-10月30日,总额为6000万元，分三期发放，满51减50,0,通过支付宝平台，分三期发放共计30万份文旅消费抵用券。凡在支付宝平台完成实名认证的用户，均可在活动期间登陆支付宝首页“苏州文旅消费券”入口或在搜索框输入“苏州文旅消费券”后进行领取。消费券可在参与活动的旅行社、景区和江南小剧场购买线路产品和门票线下支付时直接抵扣。,http://suzhou.bendibao.com/
无锡,江苏,11438,3.0,655,120.31858328810601,31.498809732685714,30000000.0,领取,“最江阴”APP领取,2020年4月10日至2020年5月31日,3000万元,0,全体江阴市民（江阴户籍人口及江阴暂住登记人口）通过“最江阴”APP下载注册并预约报名。预约报名信息必须填写正确（姓名、身份证号码、手机号码、支付宝个人账号），如填写错误，将导致消费券无法发放。预约信息一旦提交，不得更改。“最江阴”APP注册手机号必须与支付宝注册手机号一致。,http://wx.bendibao.com/
常州,江苏,7050,4.0,520,119.98148471327892,31.815795653327836,100000000.0,摇号,小程序,2月10日-3月15日,不管乘坐几站，都可以直接使用,8000张,预约报名抽奖方式，通过常州优选小程序，报名参加“留常过大年更牛气，免费乘地铁涨牛运”乘车券发放活动，到期后自动开奖，每个微信号可中奖1次。 ,http://cz.bendibao.com/
南通,江苏,8427,4.0,731,120.90159173866185,31.98654943120089,20000000.0,摇号,报名参与抽奖,每周四发放,总金额2000万，每人50元消费券,不定,报名时间：每周一到周三,http://nt.bendibao.com/
徐州,江苏,6755,4.0,892,117.29057543439453,34.21266655011306,100000000.0,领取,支付宝、口碑APP,9月10日至9月30日,综合体券面额30元，满100-30；餐饮全面额30，满70-30。,0,券当天领当天用，当日24：00作废；,http://xz.bendibao.com/
扬州,江苏,5466,4.0,500,119.41941890822997,32.40067693609037,50000000.0,领取,中国银行手机银行APP,首期发放时间：2020年5月25日上午10:00；后期发放时间：2020年6月至2020年9月，连续,"总额5000万元，面值为""满100元减50元""普通消费券、“满200元减100元”冰雪消费券",0,1、下载中国银行“手机银行”或“缤纷生活”APP，在“生活”-“运动专区”-“江苏体育局消费券专区”领取“满100元减50元”普通消费券和“满200元减100元”冰雪消费券；,http://yz.bendibao.com/
泰州,江苏,5107,4.0,508,119.9295663378548,32.4606750493083,100000000.0,领取,智慧靖江APP/支付宝,2月17日,在靖江缴纳养老保险的外地人员：每人600元；其余符合条件的外地人员：每人300元,0,申领对象：1.在靖江缴纳养老保险的外地人员； 2.不在靖江缴纳养老保险的人员中的以下三类：高新技术企业、规上工业企业、规上服务业企业、限上批零住餐企业、省级疫情防控物资重点保供企业的外地员工、外包工；参与市重点工程和重大项目建设的企业外地员工、外包工；外地种养殖从业人员。 ,http://taizhou.bendibao.com/
淮安,江苏,3601,4.0,564,119.11976413248364,33.55666778025387,192000000.0,摇号,微信小程序,2020年4月1日至30日，每天上午10时起,每张50元，总共1.92亿元,每天400张，总共384万张,"4月1日-4月30，每天都可以登陆小程序参与大转盘抽奖，或来到万达广场扫码摇一摇抽奖。活动期间,每天每个顾客线上和线下各最多可抽中1张消费券,每个顾客最多获得不超过2张券。",http://ha.bendibao.com/
杭州,浙江,13500,3.0,949,120.21551180372168,30.25308298169347,100000000.0,抢券,支付宝申领,2020年7月1日-17日,每个支付宝账户每天17元消费券，分别是满10减2、满30减5、满60减10各一张。,总额100亿,每天在活动页面展示的多个时段都可参与抢券，消费券库存数量有限，每场发放用户先到先得，发完即止。消费券领取后当天24点前有效，比如7月1日早上8:00领取的，那么须在7月1日23:59分之前使用。,http://hz.bendibao.com/
宁波,浙江,10745,3.0,801,121.63084278185603,29.866068124069646,80000000.0,摇号,支付宝、云闪付、口碑网,2020年6月8日、15日、22日、29日晚8时,8000万元,0,消费者可分别通过“云闪付”“支付宝”“口碑网”各随机领取一张满减消费券。,http://nb.bendibao.com/
温州,浙江,6006,4.0,919,120.70647689035565,28.00108540447221,199000000.0,领取,登录支付宝端口或1688平台，搜索春暖瓯越·温享生活消费券即可进入,2020年6月16日至7月20日,1.99亿元,工业消费券分三轮投放，领完为止,温州市工业专用消费券分三轮发放，每轮消费券有效期为7天。,http://wz.bendibao.com/
金华,浙江,4127,4.0,545,119.65343619052916,29.084639385513697,40000000.0,抢券,“金华新闻客户端”或“无限金华客户端”领券,6月5日10时,共4000万，每人根据需求选择其中一张领取。,0,全体在金人员（包括域外来金人员，不限户籍，以手机定位为准），指定时间开放抢券，每人每轮活动只能抢1个券包。,http://jh.bendibao.com/
嘉兴,浙江,4871,4.0,455,120.76355182586005,30.750974830920143,100000000.0,领取,支付宝领取,2020年3月30日起发放,第二批400元减100元、满200元减50元,共分6轮发放，每轮发放数量不一,公众获取申领券后，可在符合条件的嘉兴全市经营企业和工商个体户进行消费，满足消费券使用金额部分，消费券自动生效，抵价相应金额。如申领消费券后一定周期内未使用，消费券自动失效。,http://jx.bendibao.com/
台州,浙江,4874,4.0,611,121.42743470427969,28.66219405599615,40000000.0,领取,美团APP,9月30日-10月6日,4000万，每人100元,0,发放当日12点起，台州居民只需打开美团App，在搜索栏中输入关键词“台州商超消费券”进入活动主会场，选择自己所在消费区域点击“立即领取”，即可申领消费券。,http://tz.bendibao.com/
绍兴,浙江,5416,4.0,501,120.58547847885335,30.0363693113069,11000000.0,抢券,西施号APP,持续4个月左右时间，分别为：家电焕新季（9月28日-10月28日）、安居生活季（10月1日-10月3,1100万元,0,西施号APP，点击首页“1100万电子消费券来啦”参与活动，输入你的姓名和身份证号码，提交后，选择你所购买物品的商家，输入发票号码、金额，并上传发票照片，即可抢消费券。,http://sx.bendibao.com/
衢州,浙江,0,5.0,,,,100000000.0,领取,支付宝领取,2020年4月3日-4月30日,每个券包内有面额为40元的餐饮住宿消费券1份、面额为10元的购物消费券2份,总价值1亿的消费券,在衢人员可在2020年4月3日-30日每日12：00起，通过支付宝领取消费券包（每个券包内有面额为40元的餐饮住宿消费券1份、面额为10元的购物消费券2份），每人每天限领一个券包，领完即止，金额在支付宝卡包中体现。消费券使用有效期为领券之日起7天，逾期作废。,http://quzhou.bendibao.com/
石家庄,河北,6963,4.0,1078,114.52140317439488,38.04829153846363,100000000.0,领取,微信小程序,2021年7月15日-10月31日期间，每周五18:00-18:30,红包面额10元、20元、50元不等,0,通过微信小程序领取，在报名参与的“惠民红包”商家抵现消费，不设任何消费门槛，可叠加使用；不兑换现金，不找零；如产生退货，只退现金部分，红包不退；红包只能使用一次，核销后即失效。,http://sjz.bendibao.com/
保定,河北,3396,4.0,1046,115.47146383768579,38.87998776845534,42000000.0,抢券,微信公众号领取,5月18日-7月18日上午10：00,4200万,100万张,在保定均可以领取，每个微信账号在每一期次每种消费券限抢一张。每期均可参与。,http://bd.bendibao.com/
唐山,河北,7159,4.0,1024,118.18645947203979,39.63658372414733,100000000.0,领取,微信支付城市消费券小程序,4月21号开启,不详,0,①进入小程序后，点击“我的优惠券”，就可以看到已领取的消费券，点击立即使用进行购买。,http://ts.bendibao.com/
郑州,河南,10200,3.0,1012,113.63141920733915,34.75343885045448,10000000.0,抢券,app领取,自9月30日上午10点正式开抢，共分4期进行，持续到11月27日。,1000万,0,1.百货类消费券：满100元减20元,http://zz.bendibao.com/
南阳,河南,3176,4.0,1011,112.53450131351325,32.99656220465144,9000000.0,领取,在海尔智家app线上领取,6.9-6.30,总金额一共900万，每人不等,0,6月9日-6月30日，在“海尔智家'app领券中心领取，一次限领取一张。,http://ny.bendibao.com/
三门峡,河南,0,5.0,,,,100000000.0,领取,线上领取消费券,4月15日—7月23日,1亿元,0,2020年4月15日至7月23日，共计100天。每天面向公众派发20万张面值5元的消费抵扣劵，共计100万元，连续派发100天，共计1亿元。,http://smx.bendibao.com/
武汉,湖北,14847,3.0,1112,114.31158155473231,30.598466736400987,100000000.0,抢券,APP及微信小程序,2月8日中午12点起,1亿，面额最少8元，最多108元，每次每个平台可领1张，三大平台同时抢券,0,市民可通过支付宝App、美团/大众点评App及微信小程序“城市生活助手”三大平台同时抢券，每次抢券时，单个平台只能选择抢3类消费券中的一类，同一企业所属平台每次只能抢到1张券。,http://wh.bendibao.com/
襄阳,湖北,4309,4.0,550,112.12853720100244,32.014796804669224,10000000.0,领取,APP领取,从7月10日起，在每周五上午10:00开始投放。,共1000万元，每人每周期100元消费券,每人每个投放周期可领取面值80元、20元消费券各1张。,第一步，打开“云闪付APP”定位襄阳市，点击“奖励中心”；,http://xf.bendibao.com/
长沙,湖南,11527,3.0,800,112.94547319535287,28.23488939994364,1000000.0,领取,http://cs.bendibao.com/xiuxian/202176/75583.shtm,2021年7月9日15:00；7月10日9:00,100万元,满50减20（10000张）；满200减50（6000张）； 满600元减100（5000张,http://cs.bendibao.com/xiuxian/202176/75583.shtm,http://cs.bendibao.com/
九江,江西,2700,5.0,487,115.96066124030492,29.666660847999456,20000000.0,摇号,线上领取,4月11-15日参与报名申领，4月16日集中摇号,2000万元,共计发放30万笔：50元20万笔、100元10万笔,4月11-15日在支付宝搜索“赣服通”参与报名申领4月16日集中摇号电子消费券，有限期为1个月。,http://jj.bendibao.com/
上饶,江西,0,5.0,,,,20000000.0,摇号,线上领取,4月11-15日参与报名申领，4月16日集中摇号,2000万元,共计发放30万笔：50元20万笔、100元10万笔,4月11-15日在支付宝搜索“赣服通”参与报名申领4月16日集中摇号电子消费券，有限期为1个月。,http://sr.bendibao.com/
萍乡,江西,0,5.0,,,,20000000.0,摇号,线上领取,4月11-15日参与报名申领，4月16日集中摇号,2000万元,共计发放30万笔：50元20万笔、100元10万笔,4月11-15日在支付宝搜索“赣服通”参与报名申领4月16日集中摇号电子消费券，有限期为1个月。,http://px.bendibao.com/
吉安,江西,0,5.0,,,,10000000.0,领取,线上领取,4月1日起（已结束）,1000万元，每张50元面额,20万张,江西省居民(含在江西就业、就读等暂住居民)，邀请五名好友助力申领电子消费券（不包含本人），助力成功即可领取。,http://ja.bendibao.com/
宣城,安徽,0,5.0,,,,20000000.0,摇号,支付宝申领,2020年4月10日10:00-2020年4月30日23:59,总额度2000万元，满20元减8元消费券、满50元减20元消费券、满70元减30元券、满100元减50元券,活动期内，每个用户累计最多可获得1次价值128元的消费券包。,4月10日起，消费者可以随机抽奖的方式领取价值128元的满减消费券礼包。消费券领取后10天有效。单次支付仅限1张消费券，同一用户在同一商家累计最多可使用5张消费券。,http://xuancheng.bendibao.com/
福州,福建,7856,4.0,766,119.30346983854001,26.080429420698078,100000000.0,摇号,线上领取,2月12日至2月18日每日10:00开启,随机领取1张3元、5元、10元电影消费券,共计50万份,2021年福建电影消费券启动发放！正月初一至正月初七，每日10:00开启，仅限福建省内影城使用。,http://fz.bendibao.com/
厦门,福建,4791,4.0,401,118.09643549976651,24.485406605176305,100000000.0,领取,APP领取,2021年1月28日-2月26日,100-50、50-25或50-20、80-40,215万元,支付宝-口碑、饿了么、云闪付狂撒购物券,http://xm.bendibao.com/
海口,海南,0,5.0,,,,20000000.0,摇号,微信领取,2月12日至3月12日,2000万（10元、50元、100元）,0,市民游客进入海口旅游消费券H5界面，点击领取电子消费券，直接抽取消费券，每人限抽1次，随机抽取10元、50元、100元消费券和空白消费券。,http://haikou.bendibao.com/
青岛,山东,12561,3.0,929,120.38945519114627,36.072227496663224,100000000.0,领取,云闪付APP,2月11日-17日期间发放,奖品最高为666元,总数量约110万份,活动期间，消费者登录云闪付APP，进入首页-热门推荐-“奖励中心”或“云闪付红包”活动页面即可参与。每人每日可参与1次，活动期间最多参与3次。,http://qd.bendibao.com/
济南,山东,8862,3.0,870,120.10567958223872,36.23005589031066,100000000.0,领取,支付宝 首页搜索“济南”领取,2月9日 12:00,800W,0,进入支付宝首页专区入口或在支付宝搜“济南”领取。领券后即可在全市购物、餐饮、住宿三个行业领域符合要求的商家使用。,http://jn.bendibao.com/
烟台,山东,8006,4.0,706,121.45441541730195,37.470038383730525,30000000.0,摇号,微信小程序预约摇号,2020年5月1日-6月30日,3000万,0,烟台惠民消费券4月29日10：00启动预约，5月1日10:00开展首轮1000万元消费券摇号发放，之后每10天1轮，到6月30日活动结束。,http://yt.bendibao.com/
潍坊,山东,6805,4.0,936,119.16837791142822,36.71265155126753,1000000.0,领取,http://wf.bendibao.com/tour/202063/6934.shtm,2020年6月2日起至6月29,每日限量发券100万张，有5.8折，6.8折，7.8折,每日限量发券100万张,参与本次活动领取到的滴滴出行券将进入滴滴用户账号。,http://wf.bendibao.com/
淄博,山东,5292,4.0,470,118.06145253489896,36.81908568332188,100000000.0,领取,爱山东·爱淄博APP,2月1日至2月28日,300元每人,\,1. 1月29日前，已在公安机关进行流动人口居住登记的非淄博户籍市外人员，可于2月1日—2月28日通过“爱山东·爱淄博”APP申领消费券，于2月11日—2月28日在确定参与春节消费券活动的商家使用消费券。,http://zb.bendibao.com/
济宁,山东,4930,4.0,835,116.59361234853988,35.420177394529645,300000.0,领取,线上领取,2021年4月10日上午11 点,30万元,0,进入济宁文化旅游惠民服务平台，完成实名认证，确保注册姓名、手机号、身份证一致，点击济宁文化惠民季，领取优惠券；点击立即使用即可进入商城页面，选择优惠券后即可购买使用。消费券领取成功后48小时内有效。,http://jining.bendibao.com/
泰安,山东,3721,4.0,563,117.0944948347959,36.2058580448846,100000000.0,抢券,支付宝app,9月4日-12月30日每周五、六、日10点,每周不一样,0,登录支付宝，搜索“消费券”，按时抢券,http://ta.bendibao.com/
太原,山西,3884,4.0,438,112.55639149167204,37.87698902884778,200000000.0,抢券,云闪付APP,2021年6月26日至11月26日,1.2亿元,4种不同类型票券,在“云闪付APP”首页设置专区入口，进入“礼享生活•晋情消费”活动页面，实名认证后在每轮规定时间内抢券，获券人员可在“云闪付APP”—“我的票券”中查收，确认收到消费券后即可在规定期限使用。申领者可在“礼享生活•晋情消费”活动页面查看申领攻略。,http://ty.bendibao.com/
西安,陕西,8349,4.0,1255,108.94646555063274,34.34726881662395,100000000.0,领取,微信搜索“陕西文旅惠民”小程序或点击“陕西文旅惠民”公众号底部“点我购票”栏，通过首页进入“文旅惠民卡”专区，在规定时间内即可参与申领。,2020年9月26日至2020年10月8日， 每天上午10:00,2020年文旅惠民卡内共有200元,共计发放50000张,每天上午10:00，陕西文旅惠民平台发放文化演出专用惠民券和旅游景区专用惠民券。数量有限，先到先得。,http://xa.bendibao.com/
榆林,陕西,3848,4.0,340,109.74161603381395,38.290883835484046,100000000.0,领取,合作银行直接发放,2020年4月20日至7月20日,惠民消费代金券200元/人；专项消费代金券1000元/人；企业类消费代金券200至500元/人,0,消费代金券委托合作银行以电子消费券形式发放。,http://yl.bendibao.com/
安康,陕西,0,5.0,,,,100000000.0,抢券,APP领取,2020年4月21日至6月30日每周五,300元惠民券、全民wifi调优服务券、超市便利店满20元减10元券等多种金额,0,2020年4月21日至6月30日每周五上午11:00，通过“云闪付”APP线上抢券。活动支持安康电信、移动、联通用户三网参与，每个号码不限制领取次数。,http://ak.bendibao.com/
兰州,甘肃,0,5.0,,103.84052119633628,36.067234693545565,100000000.0,领取,云闪付app领取,2月5日-2月28日,面额25元,0,2021春节期间，留在兰州过年的小伙伴，可以通过“云闪付APP“领取优惠电影券、优惠滑雪券和优惠购书券。,http://lz.bendibao.com/
沈阳,辽宁,6350,4.0,829,123.47109664482264,41.68383006919066,12000000.0,领取,云闪付APP领取,8月19日到11月4日,总共发放1200万元消费券；四种电子优惠券面值是5元、10元、50元、100元,40.2万张,市民只需提前下载云闪付APP(老用户请将云闪付APP更新到最新版本)，绑定银联卡，即可参与活动。市民进入“云闪付APP”首页“奖励中心”，点击领取“沈阳市文化惠民消费券”，先领先得，领券即可使用。,http://sy.bendibao.com/
大连,辽宁,7825,4.0,702,121.62163148459285,38.9189536667856,3500000.0,领取,APP或微信小程序,9月1日-11月8日,总价值350万,0,设置20元、40元、60元、100元的消费券种类，采取立减的形式（不用领券）。,http://dl.bendibao.com/
长春,吉林,7085,4.0,749,125.3306020759069,43.82195350104314,100000000.0,抢券,APP领取,2月4日、2月7日、2月11日、2月15日，早上9点,暂未公布,0,使用长春市民卡App参与抢券。抢券成功后，消费券即时存入所用账号内。消费券数量有限，先到先得，发完即止。,http://cc.bendibao.com/
成都,四川,15342,3.0,1605,104.07274727406208,30.578993724029967,100000000.0,领取,京东app,6月8日00：00时,力度满1000元享9折，最高优惠400元；力度满800元享9.5折，最高优惠400元。,0,6月8日0时起，在成都的消费者在京东APP“成都消费券”专题页，或在京东APP搜索“成都消费券”即可领取。,http://cd.bendibao.com/
绵阳,四川,0,5.0,,,,10000.0,摇号,绵阳电信/移动公众号,2020年4月1日至2020年6月30日,共7000余万元，包含20元、30元和50元三种面额,0,4月1日上午10点起，凡四川绵阳电信、移动、联通手机用户，可点击进入“绵阳电信”—“乐购春晓消费券抽奖页面”即可抽奖领取；,http://my.bendibao.com/
德阳,四川,0,5.0,,,,100000000.0,摇号,四川电信好码齐,7月10日—7月31日,50元、100元,0,德阳三网用户进入消费券抽奖领取页面，以抽奖方式进行发放，中奖后，消费券于2日内发放至翼支付。同一身份证办理的手机号码只能中奖一次。,http://deyang.bendibao.com/
南充,四川,0,5.0,,,,51000000.0,摇号,四川电信好码齐,6月24日-9月30日,共计投放5100万元,0,南充全体市民在活动时间内可通过四川好码齐转盘抽奖，领取后5日内在线下好码齐商户使用翼支付支付满额立减。,http://nanchong.bendibao.com/
宜宾,四川,0,5.0,,,,100000000.0,摇号,四川电信好码齐,7月17日-9月30日,30元、50元,0,本次活动限宜宾市手机用户参与，首次进入活动首页绑定手机号码后，即可开始抽奖，每人每月限领一次，可在电信好码齐商户消费,http://yb.bendibao.com/
自贡,四川,0,5.0,,,,100000000.0,摇号,四川电信好码齐,即日起至7月31日,满60-30元，满100-50元,0,自贡电信、联通、移动手机号注册翼支付并绑定银卡实名的用户皆可参与；同一手机号，同一身份证，同一手机终端在抽券期间有1次抽券机会。,http://zg.bendibao.com/
乐山,四川,0,5.0,,,,100000000.0,摇号,四川电信好码齐,2020年6月24日-2020年7月30日,满100减50元、满50减20元,0,活动期间，乐山电信用户关注“乐山电信”微信公众号、电信电视 ITV 平台即可进行抽奖；每个用户每日最多可参与3次抽奖。,http://leshan.bendibao.com/
达州,四川,0,5.0,,,,100000000.0,抢券,升华广场小程序,2020年6月29日-8月20日,分别有¥50元、¥30元、¥20元、¥10元面额的消费券,每个顾客ID每天限抢购1张,达川市民参与抢券并开展消费活动（每个顾客ID每天限抢购1张），消费券在抢券到账后即可开展消费，原则上每周所抢券当周日24:00前消费清零，在报名参加的所有企业均可进行消费。,http://dazhou.bendibao.com/
内江,四川,0,5.0,,,,100000000.0,摇号,四川电信好码齐,2020年7月18日至10月17日,20、40、60元,0,内江电信、移动、联通用户均可进入领取入口领取消费券，以抽奖的方式获取。,http://neijiang.bendibao.com/
遂宁,四川,0,5.0,,,,3000000.0,摇号,扫描遂宁居民健康码,3月31日-5月10日,总价值300万元，30元、60元、90元、120元面值,平均每天投放1000张，共计4万张,1、遂宁市河东新区市民可通过扫描遂宁“居民健康码”（小区码、单位码、公共区域码），参与市河东新区餐饮电子优惠券抽奖活动，抽中后凭优惠券消费可直接抵扣现金。,http://suining.bendibao.com/
攀枝花,四川,0,5.0,,,,100000000.0,领取,攀枝花优选小程序,4月18日至5月31日,共1亿元消费券，消费券面额50元一张,每天发送6万张,"消费券通过""攀枝花优选""商城平台以电子券的形式进行发放，市民按照“公平公开、先领先得”的原则申领消费券。",http://pzh.bendibao.com/
眉山,四川,0,5.0,,,,8000000.0,摇号,四川电信好码齐,4月24日—6月30日 ,共800万元，50元、100元、200元、500元、1000元五个额度,0,眉山市移动、电信、联通手机用户进入抽奖页面输入手机号领取消费券，消费者需要下载专门APP(电信为“翼支付APP”，移动为“和包支付APP”)，并绑定银行卡，在消费结账时，扫描商家专用二维码，系统会自动抵扣消费券的金额，完成结账。,http://ms.bendibao.com/
广安,四川,0,5.0,,,,100000000.0,摇号,四川电信好码齐,6月25日-8月1日,30、50、100元,共3000万,本次活动限广安市手机用户参与，首次进入活动首页绑定手机号码后，即可开始抽奖，活动期间每人可参加抽奖2次。,http://ga.bendibao.com/
资阳,四川,0,5.0,,,,500000.0,摇号,翼支付APP,4月16日-4月26日,共50万，每张面值为50元,1万张,资阳市电信、移动、联通手机用户进入抽奖页面，绑定手机号进行抽奖，4月16日上午8：00开始，到4月26日23:59结束，将派发1万张餐饮惠民消费券，发完即止。,http://zy.bendibao.com/
凉山,四川,0,5.0,,,,100000000.0,摇号,四川电信好码齐,即日起至8月31日,50元,0,凉山电信、移动、联通用户均可在7月10日-8月31日活动时间进入活动入口，扫码参与。以抽奖的方式获取满70元减50元消费券，该券仅限在西昌市使用。,http://liangshan.bendibao.com/
雅安,四川,0,5.0,,,,100000000.0,摇号,四川电信好码齐,即日起至8月31日,5元、25元、50元、100元,0,雅安市电信、移动、联通手机用户，活动期间，通过进入抽奖页面进行抽奖。,http://ya.bendibao.com/
巴中,四川,0,5.0,,,,100000000.0,摇号,四川电信好码齐,即日起至7月31日,50元面额、100元面额,0,巴中电信、联通、移动手机号注册翼支付并绑定银卡实名的用户皆可参与；以抽奖方式获取翼支付消费券。,http://bazhong.bendibao.com/
阿坝,四川,0,5.0,,,,5050000.0,领取,移动和包支付,即日起到7月30日,发放505万元消费券,17.8万张,1、消费者下载云闪付，绑定银行卡和身份信息，即可领取优惠券；,http://ab.bendibao.com/
昆明,云南,5350,4.0,726,102.83944512326053,24.886272111644136,40000000.0,摇号,摇号中签者即可获取,2020年4月28日、29日、30日,餐饮消费券总额4000万元，面值50元/张；旅游消费券总额4500万元，面值100元/张；体育消费券总额500万元，面值50元/张,餐饮消费券80万张；旅游消费券45万张；体育消费券10万张,2020年4月25日00:00—4月30日12:00，通过办事通APP、小程序“春城花都 好享昆明”预约入口，进入昆明市消费券申请专区进行预约，成功后等待摇号。每人对每个消费券种只可参与一次预约，一旦预约成功，信息不得更改。,http://km.bendibao.com/
贵阳,贵州,3800,4.0,486,106.63657676352776,26.653324822309752,50000000.0,领取,多彩宝APP申领,2020年4月18日至7月底,共5000万元多彩贵州消费券，每人金额不等。,0,在“多彩宝”APP内的“多彩贵州消费券”专栏内进行实名认证，认证成功后即可领取餐饮消费券、购物消费券、汽车加油券等多彩贵州优惠券。,http://gy.bendibao.com/
锡林郭勒,内蒙古,0,5.0,,,,10000000.0,抢券,支付宝申领,4月11日—5月12日,总额度1000万元,10万个劵包,锡林浩特市辖区内所有已注册登记的餐饮服务经营单位，凡持有有效身份证件的消费者均可自愿参加。此次消费券发放分三批次进行。每位消费者每批次只可申领一个券包（含2张消费券），抢完为止，到期券包内未使用消费券自动作废。,http://xl.bendibao.com/
